[
	{
		"city": "Selkirk",
		"city_ascii": "Selkirk",
		"lat": "50.15",
		"lng": "-96.883300000000006",
		"country": "Canada",
		"admin_name": "Manitoba",
		"capital": "",
		"population": "9986",
		"id": "1124499880"
	},
	{
		"city": "Trepassey",
		"city_ascii": "Trepassey",
		"lat": "46.737000000000002",
		"lng": "-53.363300000000002",
		"country": "Canada",
		"admin_name": "Newfoundland and Labrador",
		"capital": "",
		"population": "398",
		"id": "1124344083"
	},
	{
		"city": "Schefferville",
		"city_ascii": "Schefferville",
		"lat": "54.8",
		"lng": "-66.816699999999997",
		"country": "Canada",
		"admin_name": "Québec",
		"capital": "",
		"population": "471",
		"id": "1124403382"
	},
	{
		"city": "Whitehorse",
		"city_ascii": "Whitehorse",
		"lat": "60.716700000000003",
		"lng": "-135.05000000000001",
		"country": "Canada",
		"admin_name": "Yukon",
		"capital": "admin",
		"population": "23276",
		"id": "1124348186"
	},
	{
		"city": "Trout River",
		"city_ascii": "Trout River",
		"lat": "49.483699999999999",
		"lng": "-58.116599999999998",
		"country": "Canada",
		"admin_name": "Newfoundland and Labrador",
		"capital": "",
		"population": "452",
		"id": "1124733447"
	},
	{
		"city": "Yorkton",
		"city_ascii": "Yorkton",
		"lat": "51.217100000000002",
		"lng": "-102.4665",
		"country": "Canada",
		"admin_name": "Saskatchewan",
		"capital": "",
		"population": "15172",
		"id": "1124108820"
	},
	{
		"city": "Antigonish",
		"city_ascii": "Antigonish",
		"lat": "45.626899999999999",
		"lng": "-61.998199999999997",
		"country": "Canada",
		"admin_name": "Nova Scotia",
		"capital": "",
		"population": "6739",
		"id": "1124839247"
	},
	{
		"city": "Gander",
		"city_ascii": "Gander",
		"lat": "48.95",
		"lng": "-54.55",
		"country": "Canada",
		"admin_name": "Newfoundland and Labrador",
		"capital": "",
		"population": "3345",
		"id": "1124310517"
	},
	{
		"city": "Berens River",
		"city_ascii": "Berens River",
		"lat": "52.366599999999998",
		"lng": "-97.033299999999997",
		"country": "Canada",
		"admin_name": "Manitoba",
		"capital": "",
		"population": "892",
		"id": "1124806860"
	},
	{
		"city": "Port-Menier",
		"city_ascii": "Port-Menier",
		"lat": "49.822600000000001",
		"lng": "-64.347999999999999",
		"country": "Canada",
		"admin_name": "Québec",
		"capital": "",
		"population": "263",
		"id": "1124109240"
	},
	{
		"city": "Wetaskiwin",
		"city_ascii": "Wetaskiwin",
		"lat": "52.9666",
		"lng": "-113.38330000000001",
		"country": "Canada",
		"admin_name": "Alberta",
		"capital": "",
		"population": "11823",
		"id": "1124492484"
	},
	{
		"city": "Shamattawa",
		"city_ascii": "Shamattawa",
		"lat": "55.8504",
		"lng": "-92.083299999999994",
		"country": "Canada",
		"admin_name": "Manitoba",
		"capital": "",
		"population": "870",
		"id": "1124131561"
	},
	{
		"city": "Steinbach",
		"city_ascii": "Steinbach",
		"lat": "49.517099999999999",
		"lng": "-96.683300000000003",
		"country": "Canada",
		"admin_name": "Manitoba",
		"capital": "",
		"population": "9729",
		"id": "1124152692"
	},
	{
		"city": "Thunder Bay",
		"city_ascii": "Thunder Bay",
		"lat": "48.446199999999997",
		"lng": "-89.275000000000006",
		"country": "Canada",
		"admin_name": "Ontario",
		"capital": "",
		"population": "99334",
		"id": "1124398712"
	},
	{
		"city": "Oshawa",
		"city_ascii": "Oshawa",
		"lat": "43.88",
		"lng": "-78.849999999999994",
		"country": "Canada",
		"admin_name": "Ontario",
		"capital": "",
		"population": "450963",
		"id": "1124541904"
	},
	{
		"city": "Chicoutimi",
		"city_ascii": "Chicoutimi",
		"lat": "48.433300000000003",
		"lng": "-71.066699999999997",
		"country": "Canada",
		"admin_name": "Québec",
		"capital": "",
		"population": "53940",
		"id": "1124426272"
	},
	{
		"city": "Melville",
		"city_ascii": "Melville",
		"lat": "50.933300000000003",
		"lng": "-102.8",
		"country": "Canada",
		"admin_name": "Saskatchewan",
		"capital": "",
		"population": "4279",
		"id": "1124823140"
	},
	{
		"city": "Brooks",
		"city_ascii": "Brooks",
		"lat": "50.567100000000003",
		"lng": "-111.9",
		"country": "Canada",
		"admin_name": "Alberta",
		"capital": "",
		"population": "14163",
		"id": "1124093123"
	},
	{
		"city": "Dauphin",
		"city_ascii": "Dauphin",
		"lat": "51.15",
		"lng": "-100.05",
		"country": "Canada",
		"admin_name": "Manitoba",
		"capital": "",
		"population": "9077",
		"id": "1124144510"
	},
	{
		"city": "Smithers",
		"city_ascii": "Smithers",
		"lat": "54.766599999999997",
		"lng": "-127.1666",
		"country": "Canada",
		"admin_name": "British Columbia",
		"capital": "",
		"population": "6245",
		"id": "1124191574"
	},
	{
		"city": "Terrace",
		"city_ascii": "Terrace",
		"lat": "54.5",
		"lng": "-128.58330000000001",
		"country": "Canada",
		"admin_name": "British Columbia",
		"capital": "",
		"population": "19443",
		"id": "1124878479"
	},
	{
		"city": "Lutselke",
		"city_ascii": "Lutselke",
		"lat": "62.400100000000002",
		"lng": "-110.7333",
		"country": "Canada",
		"admin_name": "Northwest Territories",
		"capital": "",
		"population": "102",
		"id": "1124525451"
	},
	{
		"city": "Resolute",
		"city_ascii": "Resolute",
		"lat": "74.683300000000003",
		"lng": "-94.9",
		"country": "Canada",
		"admin_name": "Nunavut",
		"capital": "",
		"population": "250",
		"id": "1124211405"
	},
	{
		"city": "Quesnel",
		"city_ascii": "Quesnel",
		"lat": "52.983699999999999",
		"lng": "-122.4833",
		"country": "Canada",
		"admin_name": "British Columbia",
		"capital": "",
		"population": "13788",
		"id": "1124028015"
	},
	{
		"city": "Island Lake",
		"city_ascii": "Island Lake",
		"lat": "53.9666",
		"lng": "-94.766599999999997",
		"country": "Canada",
		"admin_name": "Manitoba",
		"capital": "",
		"population": "10",
		"id": "1124887306"
	},
	{
		"city": "Halifax",
		"city_ascii": "Halifax",
		"lat": "44.65",
		"lng": "-63.6",
		"country": "Canada",
		"admin_name": "Nova Scotia",
		"capital": "admin",
		"population": "359111",
		"id": "1124130981"
	},
	{
		"city": "Watson Lake",
		"city_ascii": "Watson Lake",
		"lat": "60.116599999999998",
		"lng": "-128.80000000000001",
		"country": "Canada",
		"admin_name": "Yukon",
		"capital": "",
		"population": "802",
		"id": "1124162676"
	},
	{
		"city": "Sydney",
		"city_ascii": "Sydney",
		"lat": "46.066099999999999",
		"lng": "-60.18",
		"country": "Canada",
		"admin_name": "Nova Scotia",
		"capital": "",
		"population": "37538",
		"id": "1124205375"
	},
	{
		"city": "Dawson Creek",
		"city_ascii": "Dawson Creek",
		"lat": "55.767000000000003",
		"lng": "-120.2333",
		"country": "Canada",
		"admin_name": "British Columbia",
		"capital": "",
		"population": "10802",
		"id": "1124081402"
	},
	{
		"city": "Uranium City",
		"city_ascii": "Uranium City",
		"lat": "59.566600000000001",
		"lng": "-108.61660000000001",
		"country": "Canada",
		"admin_name": "Saskatchewan",
		"capital": "",
		"population": "89",
		"id": "1124993293"
	},
	{
		"city": "Timmins",
		"city_ascii": "Timmins",
		"lat": "48.4666",
		"lng": "-81.333299999999994",
		"country": "Canada",
		"admin_name": "Ontario",
		"capital": "",
		"population": "34974",
		"id": "1124760634"
	},
	{
		"city": "Saskatoon",
		"city_ascii": "Saskatoon",
		"lat": "52.17",
		"lng": "-106.67",
		"country": "Canada",
		"admin_name": "Saskatchewan",
		"capital": "",
		"population": "198958",
		"id": "1124612546"
	},
	{
		"city": "Iqaluit",
		"city_ascii": "Iqaluit",
		"lat": "63.750500000000002",
		"lng": "-68.500200000000007",
		"country": "Canada",
		"admin_name": "Nunavut",
		"capital": "admin",
		"population": "6124",
		"id": "1124379539"
	},
	{
		"city": "Alert",
		"city_ascii": "Alert",
		"lat": "82.4833",
		"lng": "-62.25",
		"country": "Canada",
		"admin_name": "Nunavut",
		"capital": "",
		"population": "125",
		"id": "1124921853"
	},
	{
		"city": "Thessalon",
		"city_ascii": "Thessalon",
		"lat": "46.25",
		"lng": "-83.55",
		"country": "Canada",
		"admin_name": "Ontario",
		"capital": "",
		"population": "1464",
		"id": "1124087342"
	},
	{
		"city": "Yellowknife",
		"city_ascii": "Yellowknife",
		"lat": "62.442",
		"lng": "-114.39700000000001",
		"country": "Canada",
		"admin_name": "Northwest Territories",
		"capital": "admin",
		"population": "19234",
		"id": "1124208917"
	},
	{
		"city": "Camrose",
		"city_ascii": "Camrose",
		"lat": "53.0167",
		"lng": "-112.81659999999999",
		"country": "Canada",
		"admin_name": "Alberta",
		"capital": "",
		"population": "15808",
		"id": "1124351657"
	},
	{
		"city": "Campbell River",
		"city_ascii": "Campbell River",
		"lat": "50.017099999999999",
		"lng": "-125.25",
		"country": "Canada",
		"admin_name": "British Columbia",
		"capital": "",
		"population": "33430",
		"id": "1124851971"
	},
	{
		"city": "Revelstoke",
		"city_ascii": "Revelstoke",
		"lat": "51.000500000000002",
		"lng": "-118.1833",
		"country": "Canada",
		"admin_name": "British Columbia",
		"capital": "",
		"population": "7668",
		"id": "1124070926"
	},
	{
		"city": "Meadow Lake",
		"city_ascii": "Meadow Lake",
		"lat": "54.130099999999999",
		"lng": "-108.43470000000001",
		"country": "Canada",
		"admin_name": "Saskatchewan",
		"capital": "",
		"population": "5882",
		"id": "1124434578"
	},
	{
		"city": "Atikokan",
		"city_ascii": "Atikokan",
		"lat": "48.750399999999999",
		"lng": "-91.616600000000005",
		"country": "Canada",
		"admin_name": "Ontario",
		"capital": "",
		"population": "3625",
		"id": "1124868159"
	},
	{
		"city": "Creston",
		"city_ascii": "Creston",
		"lat": "49.1",
		"lng": "-116.5167",
		"country": "Canada",
		"admin_name": "British Columbia",
		"capital": "",
		"population": "4816",
		"id": "1124204302"
	},
	{
		"city": "Gillam",
		"city_ascii": "Gillam",
		"lat": "56.35",
		"lng": "-94.7",
		"country": "Canada",
		"admin_name": "Manitoba",
		"capital": "",
		"population": "1281",
		"id": "1124560722"
	},
	{
		"city": "Cranbrook",
		"city_ascii": "Cranbrook",
		"lat": "49.5167",
		"lng": "-115.7667",
		"country": "Canada",
		"admin_name": "British Columbia",
		"capital": "",
		"population": "18610",
		"id": "1124937794"
	},
	{
		"city": "Little Current",
		"city_ascii": "Little Current",
		"lat": "45.966999999999999",
		"lng": "-81.933300000000003",
		"country": "Canada",
		"admin_name": "Ontario",
		"capital": "",
		"population": "1595",
		"id": "1124386809"
	},
	{
		"city": "Calgary",
		"city_ascii": "Calgary",
		"lat": "51.082999999999998",
		"lng": "-114.08",
		"country": "Canada",
		"admin_name": "Alberta",
		"capital": "",
		"population": "1110000",
		"id": "1124690423"
	},
	{
		"city": "Big Beaver House",
		"city_ascii": "Big Beaver House",
		"lat": "52.95",
		"lng": "-89.883300000000006",
		"country": "Canada",
		"admin_name": "Ontario",
		"capital": "",
		"population": "10",
		"id": "1124557709"
	},
	{
		"city": "Parry Sound",
		"city_ascii": "Parry Sound",
		"lat": "45.3337",
		"lng": "-80.033000000000001",
		"country": "Canada",
		"admin_name": "Ontario",
		"capital": "",
		"population": "7105",
		"id": "1124245809"
	},
	{
		"city": "Kamloops",
		"city_ascii": "Kamloops",
		"lat": "50.666699999999999",
		"lng": "-120.33329999999999",
		"country": "Canada",
		"admin_name": "British Columbia",
		"capital": "",
		"population": "68714",
		"id": "1124735582"
	},
	{
		"city": "Dolbeau",
		"city_ascii": "Dolbeau",
		"lat": "48.866599999999998",
		"lng": "-72.2333",
		"country": "Canada",
		"admin_name": "Québec",
		"capital": "",
		"population": "13337",
		"id": "1124037070"
	},
	{
		"city": "St. John's",
		"city_ascii": "St. John's",
		"lat": "47.585000000000001",
		"lng": "-52.680999999999997",
		"country": "Canada",
		"admin_name": "Newfoundland and Labrador",
		"capital": "admin",
		"population": "131469",
		"id": "1124741456"
	},
	{
		"city": "Lansdowne House",
		"city_ascii": "Lansdowne House",
		"lat": "52.2166",
		"lng": "-87.883300000000006",
		"country": "Canada",
		"admin_name": "Ontario",
		"capital": "",
		"population": "120",
		"id": "1124130748"
	},
	{
		"city": "Paulatuk",
		"city_ascii": "Paulatuk",
		"lat": "69.383300000000006",
		"lng": "-123.9833",
		"country": "Canada",
		"admin_name": "Northwest Territories",
		"capital": "",
		"population": "294",
		"id": "1124599203"
	},
	{
		"city": "Attawapiskat",
		"city_ascii": "Attawapiskat",
		"lat": "52.916600000000003",
		"lng": "-82.433300000000003",
		"country": "Canada",
		"admin_name": "Ontario",
		"capital": "",
		"population": "1802",
		"id": "1124363788"
	},
	{
		"city": "Rimouski",
		"city_ascii": "Rimouski",
		"lat": "48.433700000000002",
		"lng": "-68.5167",
		"country": "Canada",
		"admin_name": "Québec",
		"capital": "",
		"population": "35584",
		"id": "1124433645"
	},
	{
		"city": "Grand Prairie",
		"city_ascii": "Grand Prairie",
		"lat": "55.166600000000003",
		"lng": "-118.8",
		"country": "Canada",
		"admin_name": "Alberta",
		"capital": "",
		"population": "41462",
		"id": "1124505481"
	},
	{
		"city": "La Sarre",
		"city_ascii": "La Sarre",
		"lat": "48.8",
		"lng": "-79.2",
		"country": "Canada",
		"admin_name": "Québec",
		"capital": "",
		"population": "7206",
		"id": "1124902252"
	},
	{
		"city": "Mingan",
		"city_ascii": "Mingan",
		"lat": "50.3018",
		"lng": "-64.017300000000006",
		"country": "Canada",
		"admin_name": "Québec",
		"capital": "",
		"population": "588",
		"id": "1124305694"
	},
	{
		"city": "Prince Albert",
		"city_ascii": "Prince Albert",
		"lat": "53.2",
		"lng": "-105.75",
		"country": "Canada",
		"admin_name": "Saskatchewan",
		"capital": "",
		"population": "34609",
		"id": "1124158154"
	},
	{
		"city": "Moose Jaw",
		"city_ascii": "Moose Jaw",
		"lat": "50.4",
		"lng": "-105.55",
		"country": "Canada",
		"admin_name": "Saskatchewan",
		"capital": "",
		"population": "32166",
		"id": "1124806868"
	},
	{
		"city": "Powell River",
		"city_ascii": "Powell River",
		"lat": "49.883699999999997",
		"lng": "-124.55",
		"country": "Canada",
		"admin_name": "British Columbia",
		"capital": "",
		"population": "12779",
		"id": "1124154376"
	},
	{
		"city": "Pangnirtung",
		"city_ascii": "Pangnirtung",
		"lat": "66.133300000000006",
		"lng": "-65.75",
		"country": "Canada",
		"admin_name": "Nunavut",
		"capital": "",
		"population": "1320",
		"id": "1124731886"
	},
	{
		"city": "Nelson",
		"city_ascii": "Nelson",
		"lat": "49.483699999999999",
		"lng": "-117.2833",
		"country": "Canada",
		"admin_name": "British Columbia",
		"capital": "",
		"population": "11779",
		"id": "1124361295"
	},
	{
		"city": "Peace River",
		"city_ascii": "Peace River",
		"lat": "56.2333",
		"lng": "-117.2833",
		"country": "Canada",
		"admin_name": "Alberta",
		"capital": "",
		"population": "5340",
		"id": "1124941936"
	},
	{
		"city": "Cobalt",
		"city_ascii": "Cobalt",
		"lat": "47.383699999999997",
		"lng": "-79.683300000000003",
		"country": "Canada",
		"admin_name": "Ontario",
		"capital": "",
		"population": "1372",
		"id": "1124248298"
	},
	{
		"city": "New Glasgow",
		"city_ascii": "New Glasgow",
		"lat": "45.583300000000001",
		"lng": "-62.633299999999998",
		"country": "Canada",
		"admin_name": "Nova Scotia",
		"capital": "",
		"population": "20322",
		"id": "1124760188"
	},
	{
		"city": "Arctic Bay",
		"city_ascii": "Arctic Bay",
		"lat": "73.033299999999997",
		"lng": "-85.166600000000003",
		"country": "Canada",
		"admin_name": "Nunavut",
		"capital": "",
		"population": "604",
		"id": "1124556203"
	},
	{
		"city": "Burwash Landing",
		"city_ascii": "Burwash Landing",
		"lat": "61.3504",
		"lng": "-139",
		"country": "Canada",
		"admin_name": "Yukon",
		"capital": "",
		"population": "73",
		"id": "1124021816"
	},
	{
		"city": "Saint-Georges",
		"city_ascii": "Saint-Georges",
		"lat": "46.117100000000001",
		"lng": "-70.666700000000006",
		"country": "Canada",
		"admin_name": "Québec",
		"capital": "",
		"population": "26149",
		"id": "1124154865"
	},
	{
		"city": "Vancouver",
		"city_ascii": "Vancouver",
		"lat": "49.273400000000002",
		"lng": "-123.1216",
		"country": "Canada",
		"admin_name": "British Columbia",
		"capital": "",
		"population": "2313328",
		"id": "1124825478"
	},
	{
		"city": "Medicine Hat",
		"city_ascii": "Medicine Hat",
		"lat": "50.033299999999997",
		"lng": "-110.6833",
		"country": "Canada",
		"admin_name": "Alberta",
		"capital": "",
		"population": "63138",
		"id": "1124303972"
	},
	{
		"city": "Port Hope Simpson",
		"city_ascii": "Port Hope Simpson",
		"lat": "52.533299999999997",
		"lng": "-56.3",
		"country": "Canada",
		"admin_name": "Newfoundland and Labrador",
		"capital": "",
		"population": "197",
		"id": "1124159024"
	},
	{
		"city": "Deer Lake",
		"city_ascii": "Deer Lake",
		"lat": "49.174399999999999",
		"lng": "-57.426900000000003",
		"country": "Canada",
		"admin_name": "Newfoundland and Labrador",
		"capital": "",
		"population": "4163",
		"id": "1124841556"
	},
	{
		"city": "Vegreville",
		"city_ascii": "Vegreville",
		"lat": "53.5",
		"lng": "-112.05",
		"country": "Canada",
		"admin_name": "Alberta",
		"capital": "",
		"population": "5813",
		"id": "1124534321"
	},
	{
		"city": "Bella Bella",
		"city_ascii": "Bella Bella",
		"lat": "52.148400000000002",
		"lng": "-128.1173",
		"country": "Canada",
		"admin_name": "British Columbia",
		"capital": "",
		"population": "1400",
		"id": "1124480592"
	},
	{
		"city": "Rankin Inlet",
		"city_ascii": "Rankin Inlet",
		"lat": "62.816699999999997",
		"lng": "-92.095299999999995",
		"country": "Canada",
		"admin_name": "Nunavut",
		"capital": "",
		"population": "2472",
		"id": "1124057160"
	},
	{
		"city": "Owen Sound",
		"city_ascii": "Owen Sound",
		"lat": "44.566600000000001",
		"lng": "-80.849999999999994",
		"country": "Canada",
		"admin_name": "Ontario",
		"capital": "",
		"population": "22625",
		"id": "1124623613"
	},
	{
		"city": "Lac La Biche",
		"city_ascii": "Lac La Biche",
		"lat": "54.771900000000002",
		"lng": "-111.96469999999999",
		"country": "Canada",
		"admin_name": "Alberta",
		"capital": "",
		"population": "2986",
		"id": "1124501918"
	},
	{
		"city": "Hopedale",
		"city_ascii": "Hopedale",
		"lat": "55.45",
		"lng": "-60.216700000000003",
		"country": "Canada",
		"admin_name": "Newfoundland and Labrador",
		"capital": "",
		"population": "442",
		"id": "1124338710"
	},
	{
		"city": "Norway House",
		"city_ascii": "Norway House",
		"lat": "53.9666",
		"lng": "-97.833299999999994",
		"country": "Canada",
		"admin_name": "Manitoba",
		"capital": "",
		"population": "6000",
		"id": "1124567295"
	},
	{
		"city": "Coral Harbour",
		"city_ascii": "Coral Harbour",
		"lat": "64.153800000000004",
		"lng": "-83.176599999999993",
		"country": "Canada",
		"admin_name": "Nunavut",
		"capital": "",
		"population": "834",
		"id": "1124748087"
	},
	{
		"city": "Kugluktuk",
		"city_ascii": "Kugluktuk",
		"lat": "67.798699999999997",
		"lng": "-115.1254",
		"country": "Canada",
		"admin_name": "Nunavut",
		"capital": "",
		"population": "1302",
		"id": "1124349489"
	},
	{
		"city": "Norman Wells",
		"city_ascii": "Norman Wells",
		"lat": "65.283699999999996",
		"lng": "-126.85",
		"country": "Canada",
		"admin_name": "Northwest Territories",
		"capital": "",
		"population": "1027",
		"id": "1124868628"
	},
	{
		"city": "Fort Resolution",
		"city_ascii": "Fort Resolution",
		"lat": "61.166600000000003",
		"lng": "-113.68300000000001",
		"country": "Canada",
		"admin_name": "Northwest Territories",
		"capital": "",
		"population": "448",
		"id": "1124395645"
	},
	{
		"city": "Fort McPherson",
		"city_ascii": "Fort McPherson",
		"lat": "67.491500000000002",
		"lng": "-134.89500000000001",
		"country": "Canada",
		"admin_name": "Northwest Territories",
		"capital": "",
		"population": "1069",
		"id": "1124984904"
	},
	{
		"city": "Forteau",
		"city_ascii": "Forteau",
		"lat": "51.450400000000002",
		"lng": "-56.95",
		"country": "Canada",
		"admin_name": "Newfoundland and Labrador",
		"capital": "",
		"population": "448",
		"id": "1124235945"
	},
	{
		"city": "Kuujjuaq",
		"city_ascii": "Kuujjuaq",
		"lat": "58.1",
		"lng": "-68.400000000000006",
		"country": "Canada",
		"admin_name": "Québec",
		"capital": "",
		"population": "1273",
		"id": "1124705411"
	},
	{
		"city": "Cape Dorset",
		"city_ascii": "Cape Dorset",
		"lat": "64.3125",
		"lng": "-76.538600000000002",
		"country": "Canada",
		"admin_name": "Nunavut",
		"capital": "",
		"population": "1326",
		"id": "1124646146"
	},
	{
		"city": "Cartwright",
		"city_ascii": "Cartwright",
		"lat": "53.7014",
		"lng": "-57.012099999999997",
		"country": "Canada",
		"admin_name": "Newfoundland and Labrador",
		"capital": "",
		"population": "505",
		"id": "1124810278"
	},
	{
		"city": "Flin Flon",
		"city_ascii": "Flin Flon",
		"lat": "54.766599999999997",
		"lng": "-101.88330000000001",
		"country": "Canada",
		"admin_name": "Manitoba",
		"capital": "",
		"population": "6393",
		"id": "1124500458"
	},
	{
		"city": "Holman",
		"city_ascii": "Holman",
		"lat": "70.733400000000003",
		"lng": "-117.75",
		"country": "Canada",
		"admin_name": "Northwest Territories",
		"capital": "",
		"population": "500",
		"id": "1124762461"
	},
	{
		"city": "Pembroke",
		"city_ascii": "Pembroke",
		"lat": "45.850299999999997",
		"lng": "-77.116600000000005",
		"country": "Canada",
		"admin_name": "Ontario",
		"capital": "",
		"population": "15551",
		"id": "1124877940"
	},
	{
		"city": "Baker Lake",
		"city_ascii": "Baker Lake",
		"lat": "64.316999999999993",
		"lng": "-96.0167",
		"country": "Canada",
		"admin_name": "Nunavut",
		"capital": "",
		"population": "1584",
		"id": "1124826935"
	},
	{
		"city": "Moosonee",
		"city_ascii": "Moosonee",
		"lat": "51.2806",
		"lng": "-80.658000000000001",
		"country": "Canada",
		"admin_name": "Ontario",
		"capital": "",
		"population": "1725",
		"id": "1124592907"
	},
	{
		"city": "Dryden",
		"city_ascii": "Dryden",
		"lat": "49.783299999999997",
		"lng": "-92.833299999999994",
		"country": "Canada",
		"admin_name": "Ontario",
		"capital": "",
		"population": "7862",
		"id": "1124295097"
	},
	{
		"city": "Corner Brook",
		"city_ascii": "Corner Brook",
		"lat": "48.95",
		"lng": "-57.933300000000003",
		"country": "Canada",
		"admin_name": "Newfoundland and Labrador",
		"capital": "",
		"population": "20791",
		"id": "1124244792"
	},
	{
		"city": "Kelowna",
		"city_ascii": "Kelowna",
		"lat": "49.9",
		"lng": "-119.4833",
		"country": "Canada",
		"admin_name": "British Columbia",
		"capital": "",
		"population": "125109",
		"id": "1124080626"
	},
	{
		"city": "Fort Smith",
		"city_ascii": "Fort Smith",
		"lat": "60",
		"lng": "-111.88330000000001",
		"country": "Canada",
		"admin_name": "Northwest Territories",
		"capital": "",
		"population": "518",
		"id": "1124491408"
	},
	{
		"city": "Fort Severn",
		"city_ascii": "Fort Severn",
		"lat": "55.9833",
		"lng": "-87.65",
		"country": "Canada",
		"admin_name": "Ontario",
		"capital": "",
		"population": "125",
		"id": "1124513059"
	},
	{
		"city": "Mont-Laurier",
		"city_ascii": "Mont-Laurier",
		"lat": "46.550400000000003",
		"lng": "-75.5",
		"country": "Canada",
		"admin_name": "Québec",
		"capital": "",
		"population": "11642",
		"id": "1124355399"
	},
	{
		"city": "Channel-Port aux Basques",
		"city_ascii": "Channel-Port aux Basques",
		"lat": "47.567",
		"lng": "-59.15",
		"country": "Canada",
		"admin_name": "Newfoundland and Labrador",
		"capital": "",
		"population": "4220",
		"id": "1124993496"
	},
	{
		"city": "Kindersley",
		"city_ascii": "Kindersley",
		"lat": "51.466999999999999",
		"lng": "-109.13330000000001",
		"country": "Canada",
		"admin_name": "Saskatchewan",
		"capital": "",
		"population": "4383",
		"id": "1124343190"
	},
	{
		"city": "Igloolik",
		"city_ascii": "Igloolik",
		"lat": "69.256500000000003",
		"lng": "-81.793599999999998",
		"country": "Canada",
		"admin_name": "Nunavut",
		"capital": "",
		"population": "1612",
		"id": "1124253277"
	},
	{
		"city": "Hudson Bay",
		"city_ascii": "Hudson Bay",
		"lat": "52.8504",
		"lng": "-102.38330000000001",
		"country": "Canada",
		"admin_name": "Saskatchewan",
		"capital": "",
		"population": "2157",
		"id": "1124151446"
	},
	{
		"city": "Courtenay",
		"city_ascii": "Courtenay",
		"lat": "49.683300000000003",
		"lng": "-125",
		"country": "Canada",
		"admin_name": "British Columbia",
		"capital": "",
		"population": "32793",
		"id": "1124324905"
	},
	{
		"city": "Mistassini",
		"city_ascii": "Mistassini",
		"lat": "50.417099999999998",
		"lng": "-73.866600000000005",
		"country": "Canada",
		"admin_name": "Québec",
		"capital": "",
		"population": "2645",
		"id": "1124591114"
	},
	{
		"city": "Kingston",
		"city_ascii": "Kingston",
		"lat": "44.233699999999999",
		"lng": "-76.4833",
		"country": "Canada",
		"admin_name": "Ontario",
		"capital": "",
		"population": "114195",
		"id": "1124437097"
	},
	{
		"city": "Eastmain",
		"city_ascii": "Eastmain",
		"lat": "52.2333",
		"lng": "-78.5167",
		"country": "Canada",
		"admin_name": "Québec",
		"capital": "",
		"population": "335",
		"id": "1124594875"
	},
	{
		"city": "Baie-Comeau",
		"city_ascii": "Baie-Comeau",
		"lat": "49.222700000000003",
		"lng": "-68.158000000000001",
		"country": "Canada",
		"admin_name": "Québec",
		"capital": "",
		"population": "10435",
		"id": "1124859576"
	},
	{
		"city": "North Bay",
		"city_ascii": "North Bay",
		"lat": "46.3",
		"lng": "-79.45",
		"country": "Canada",
		"admin_name": "Ontario",
		"capital": "",
		"population": "50170",
		"id": "1124058496"
	},
	{
		"city": "North Battleford",
		"city_ascii": "North Battleford",
		"lat": "52.766599999999997",
		"lng": "-108.2833",
		"country": "Canada",
		"admin_name": "Saskatchewan",
		"capital": "",
		"population": "19440",
		"id": "1124789635"
	},
	{
		"city": "Grise Fiord",
		"city_ascii": "Grise Fiord",
		"lat": "76.441699999999997",
		"lng": "-82.95",
		"country": "Canada",
		"admin_name": "Nunavut",
		"capital": "",
		"population": "23",
		"id": "1124072601"
	},
	{
		"city": "Hay River",
		"city_ascii": "Hay River",
		"lat": "60.85",
		"lng": "-115.7",
		"country": "Canada",
		"admin_name": "Northwest Territories",
		"capital": "",
		"population": "3900",
		"id": "1124721803"
	},
	{
		"city": "Stony Rapids",
		"city_ascii": "Stony Rapids",
		"lat": "59.266599999999997",
		"lng": "-105.83329999999999",
		"country": "Canada",
		"admin_name": "Saskatchewan",
		"capital": "",
		"population": "152",
		"id": "1124279421"
	},
	{
		"city": "Hinton",
		"city_ascii": "Hinton",
		"lat": "53.4",
		"lng": "-117.5834",
		"country": "Canada",
		"admin_name": "Alberta",
		"capital": "",
		"population": "10265",
		"id": "1124131074"
	},
	{
		"city": "Toronto",
		"city_ascii": "Toronto",
		"lat": "43.7",
		"lng": "-79.42",
		"country": "Canada",
		"admin_name": "Ontario",
		"capital": "admin",
		"population": "5213000",
		"id": "1124279679"
	},
	{
		"city": "Edmonton",
		"city_ascii": "Edmonton",
		"lat": "53.55",
		"lng": "-113.5",
		"country": "Canada",
		"admin_name": "Alberta",
		"capital": "admin",
		"population": "1058000",
		"id": "1124290735"
	},
	{
		"city": "Gjoa Haven",
		"city_ascii": "Gjoa Haven",
		"lat": "68.633300000000006",
		"lng": "-95.916700000000006",
		"country": "Canada",
		"admin_name": "Nunavut",
		"capital": "",
		"population": "1109",
		"id": "1124942230"
	},
	{
		"city": "Fort Simpson",
		"city_ascii": "Fort Simpson",
		"lat": "61.85",
		"lng": "-121.33329999999999",
		"country": "Canada",
		"admin_name": "Northwest Territories",
		"capital": "",
		"population": "283",
		"id": "1124669512"
	},
	{
		"city": "Naujaat",
		"city_ascii": "Repulse Bay",
		"lat": "66.529499999999999",
		"lng": "-86.282899999999998",
		"country": "Canada",
		"admin_name": "Nunavut",
		"capital": "",
		"population": "1000",
		"id": "1124398936"
	},
	{
		"city": "Lethbridge",
		"city_ascii": "Lethbridge",
		"lat": "49.700499999999998",
		"lng": "-112.83329999999999",
		"country": "Canada",
		"admin_name": "Alberta",
		"capital": "",
		"population": "70617",
		"id": "1124321200"
	},
	{
		"city": "Sudbury",
		"city_ascii": "Sudbury",
		"lat": "46.5",
		"lng": "-80.9666",
		"country": "Canada",
		"admin_name": "Ontario",
		"capital": "",
		"population": "157857",
		"id": "1124539524"
	},
	{
		"city": "Swift Current",
		"city_ascii": "Swift Current",
		"lat": "50.283700000000003",
		"lng": "-107.7666",
		"country": "Canada",
		"admin_name": "Saskatchewan",
		"capital": "",
		"population": "14906",
		"id": "1124460875"
	},
	{
		"city": "Regina",
		"city_ascii": "Regina",
		"lat": "50.45",
		"lng": "-104.617",
		"country": "Canada",
		"admin_name": "Saskatchewan",
		"capital": "admin",
		"population": "176183",
		"id": "1124342541"
	},
	{
		"city": "Cornwall",
		"city_ascii": "Cornwall",
		"lat": "45.017099999999999",
		"lng": "-74.7333",
		"country": "Canada",
		"admin_name": "Ontario",
		"capital": "",
		"population": "48821",
		"id": "1124938303"
	},
	{
		"city": "Taloyoak",
		"city_ascii": "Taloyoak",
		"lat": "69.533299999999997",
		"lng": "-93.533299999999997",
		"country": "Canada",
		"admin_name": "Nunavut",
		"capital": "",
		"population": "774",
		"id": "1124099415"
	},
	{
		"city": "Tuktoyaktuk",
		"city_ascii": "Tuktoyaktuk",
		"lat": "69.454800000000006",
		"lng": "-133.04920000000001",
		"country": "Canada",
		"admin_name": "Northwest Territories",
		"capital": "",
		"population": "929",
		"id": "1124437778"
	},
	{
		"city": "Deer Lake",
		"city_ascii": "Deer Lake",
		"lat": "52.616999999999997",
		"lng": "-94.066599999999994",
		"country": "Canada",
		"admin_name": "Ontario",
		"capital": "",
		"population": "3743",
		"id": "1124585613"
	},
	{
		"city": "London",
		"city_ascii": "London",
		"lat": "42.97",
		"lng": "-81.25",
		"country": "Canada",
		"admin_name": "Ontario",
		"capital": "",
		"population": "346765",
		"id": "1124469960"
	},
	{
		"city": "Natashquan",
		"city_ascii": "Natashquan",
		"lat": "50.191299999999998",
		"lng": "-61.810699999999997",
		"country": "Canada",
		"admin_name": "Québec",
		"capital": "",
		"population": "722",
		"id": "1124631749"
	},
	{
		"city": "Cap-Chat",
		"city_ascii": "Cap-Chat",
		"lat": "49.1",
		"lng": "-66.683300000000003",
		"country": "Canada",
		"admin_name": "Québec",
		"capital": "",
		"population": "1484",
		"id": "1124662875"
	},
	{
		"city": "Orillia",
		"city_ascii": "Orillia",
		"lat": "44.6",
		"lng": "-79.416700000000006",
		"country": "Canada",
		"admin_name": "Ontario",
		"capital": "",
		"population": "37483",
		"id": "1124049830"
	},
	{
		"city": "Kenora",
		"city_ascii": "Kenora",
		"lat": "49.7667",
		"lng": "-94.4666",
		"country": "Canada",
		"admin_name": "Ontario",
		"capital": "",
		"population": "10852",
		"id": "1124844807"
	},
	{
		"city": "Barrie",
		"city_ascii": "Barrie",
		"lat": "44.383800000000001",
		"lng": "-79.7",
		"country": "Canada",
		"admin_name": "Ontario",
		"capital": "",
		"population": "182041",
		"id": "1124340223"
	},
	{
		"city": "Sherbrooke",
		"city_ascii": "Sherbrooke",
		"lat": "45.4",
		"lng": "-71.900000000000006",
		"country": "Canada",
		"admin_name": "Québec",
		"capital": "",
		"population": "139652",
		"id": "1124559506"
	},
	{
		"city": "St. Anthony",
		"city_ascii": "St. Anthony",
		"lat": "51.383699999999997",
		"lng": "-55.6",
		"country": "Canada",
		"admin_name": "Newfoundland and Labrador",
		"capital": "",
		"population": "224",
		"id": "1124808047"
	},
	{
		"city": "Rigolet",
		"city_ascii": "Rigolet",
		"lat": "54.176600000000001",
		"lng": "-58.447299999999998",
		"country": "Canada",
		"admin_name": "Newfoundland and Labrador",
		"capital": "",
		"population": "124",
		"id": "1124015130"
	},
	{
		"city": "Fort Good Hope",
		"city_ascii": "Fort Good Hope",
		"lat": "66.266599999999997",
		"lng": "-128.63329999999999",
		"country": "Canada",
		"admin_name": "Northwest Territories",
		"capital": "",
		"population": "597",
		"id": "1124011380"
	},
	{
		"city": "La Scie",
		"city_ascii": "La Scie",
		"lat": "49.966999999999999",
		"lng": "-55.582999999999998",
		"country": "Canada",
		"admin_name": "Newfoundland and Labrador",
		"capital": "",
		"population": "817",
		"id": "1124371570"
	},
	{
		"city": "Fort St. John",
		"city_ascii": "Fort St. John",
		"lat": "56.25",
		"lng": "-120.83329999999999",
		"country": "Canada",
		"admin_name": "British Columbia",
		"capital": "",
		"population": "18776",
		"id": "1124517495"
	},
	{
		"city": "Marathon",
		"city_ascii": "Marathon",
		"lat": "48.750399999999999",
		"lng": "-86.366699999999994",
		"country": "Canada",
		"admin_name": "Ontario",
		"capital": "",
		"population": "4627",
		"id": "1124974800"
	},
	{
		"city": "Gaspé",
		"city_ascii": "Gaspe",
		"lat": "48.837299999999999",
		"lng": "-64.493399999999994",
		"country": "Canada",
		"admin_name": "Québec",
		"capital": "",
		"population": "3677",
		"id": "1124212754"
	},
	{
		"city": "Nelson House",
		"city_ascii": "Nelson House",
		"lat": "55.8005",
		"lng": "-98.85",
		"country": "Canada",
		"admin_name": "Manitoba",
		"capital": "",
		"population": "2500",
		"id": "1124119363"
	},
	{
		"city": "Lillooet",
		"city_ascii": "Lillooet",
		"lat": "50.683700000000002",
		"lng": "-121.9333",
		"country": "Canada",
		"admin_name": "British Columbia",
		"capital": "",
		"population": "2893",
		"id": "1124632130"
	},
	{
		"city": "Fort McMurray",
		"city_ascii": "Fort McMurray",
		"lat": "56.7333",
		"lng": "-111.38330000000001",
		"country": "Canada",
		"admin_name": "Alberta",
		"capital": "",
		"population": "21863",
		"id": "1124169385"
	},
	{
		"city": "Jasper",
		"city_ascii": "Jasper",
		"lat": "52.883299999999998",
		"lng": "-118.0834",
		"country": "Canada",
		"admin_name": "Alberta",
		"capital": "",
		"population": "3907",
		"id": "1124533812"
	},
	{
		"city": "Buchans",
		"city_ascii": "Buchans",
		"lat": "48.817",
		"lng": "-56.866599999999998",
		"country": "Canada",
		"admin_name": "Newfoundland and Labrador",
		"capital": "",
		"population": "685",
		"id": "1124564223"
	},
	{
		"city": "Stettler",
		"city_ascii": "Stettler",
		"lat": "52.332999999999998",
		"lng": "-112.6833",
		"country": "Canada",
		"admin_name": "Alberta",
		"capital": "",
		"population": "5494",
		"id": "1124010388"
	},
	{
		"city": "La Ronge",
		"city_ascii": "La Ronge",
		"lat": "55.1",
		"lng": "-105.3",
		"country": "Canada",
		"admin_name": "Saskatchewan",
		"capital": "",
		"population": "3783",
		"id": "1124763455"
	},
	{
		"city": "Brochet",
		"city_ascii": "Brochet",
		"lat": "57.883200000000002",
		"lng": "-101.6666",
		"country": "Canada",
		"admin_name": "Manitoba",
		"capital": "",
		"population": "278",
		"id": "1124164486"
	},
	{
		"city": "Baddeck",
		"city_ascii": "Baddeck",
		"lat": "46.1",
		"lng": "-60.753999999999998",
		"country": "Canada",
		"admin_name": "Nova Scotia",
		"capital": "",
		"population": "852",
		"id": "1124594988"
	},
	{
		"city": "Pond Inlet",
		"city_ascii": "Pond Inlet",
		"lat": "72.685000000000002",
		"lng": "-78.000100000000003",
		"country": "Canada",
		"admin_name": "Nunavut",
		"capital": "",
		"population": "1549",
		"id": "1124788973"
	},
	{
		"city": "St-Augustin",
		"city_ascii": "St-Augustin",
		"lat": "51.2423",
		"lng": "-58.646999999999998",
		"country": "Canada",
		"admin_name": "Québec",
		"capital": "",
		"population": "3961",
		"id": "1124425707"
	},
	{
		"city": "Gimli",
		"city_ascii": "Gimli",
		"lat": "50.633299999999998",
		"lng": "-97",
		"country": "Canada",
		"admin_name": "Manitoba",
		"capital": "",
		"population": "2623",
		"id": "1124472413"
	},
	{
		"city": "Red Lake",
		"city_ascii": "Red Lake",
		"lat": "51.033700000000003",
		"lng": "-93.833299999999994",
		"country": "Canada",
		"admin_name": "Ontario",
		"capital": "",
		"population": "1765",
		"id": "1124856215"
	},
	{
		"city": "Stephenville",
		"city_ascii": "Stephenville",
		"lat": "48.550400000000003",
		"lng": "-58.566600000000001",
		"country": "Canada",
		"admin_name": "Newfoundland and Labrador",
		"capital": "",
		"population": "7054",
		"id": "1124000201"
	},
	{
		"city": "Ennadai",
		"city_ascii": "Ennadai",
		"lat": "61.133299999999998",
		"lng": "-100.88330000000001",
		"country": "Canada",
		"admin_name": "Nunavut",
		"capital": "",
		"population": "0",
		"id": "1124019423"
	},
	{
		"city": "Happy Valley - Goose Bay",
		"city_ascii": "Happy Valley - Goose Bay",
		"lat": "53.3",
		"lng": "-60.3",
		"country": "Canada",
		"admin_name": "Newfoundland and Labrador",
		"capital": "",
		"population": "7572",
		"id": "1124879731"
	},
	{
		"city": "Williams Lake",
		"city_ascii": "Williams Lake",
		"lat": "52.116599999999998",
		"lng": "-122.15",
		"country": "Canada",
		"admin_name": "British Columbia",
		"capital": "",
		"population": "14168",
		"id": "1124821980"
	},
	{
		"city": "Prince Rupert",
		"city_ascii": "Prince Rupert",
		"lat": "54.316699999999997",
		"lng": "-130.33000000000001",
		"country": "Canada",
		"admin_name": "British Columbia",
		"capital": "",
		"population": "14708",
		"id": "1124847707"
	},
	{
		"city": "Chilliwack",
		"city_ascii": "Chilliwack",
		"lat": "49.166600000000003",
		"lng": "-121.95",
		"country": "Canada",
		"admin_name": "British Columbia",
		"capital": "",
		"population": "51942",
		"id": "1124531262"
	},
	{
		"city": "Radisson",
		"city_ascii": "Radisson",
		"lat": "53.7836",
		"lng": "-77.616600000000005",
		"country": "Canada",
		"admin_name": "Québec",
		"capital": "",
		"population": "270",
		"id": "1124508471"
	},
	{
		"city": "Churchill",
		"city_ascii": "Churchill",
		"lat": "58.765999999999998",
		"lng": "-94.165999999999997",
		"country": "Canada",
		"admin_name": "Manitoba",
		"capital": "",
		"population": "1000",
		"id": "1124676851"
	},
	{
		"city": "Port Hardy",
		"city_ascii": "Port Hardy",
		"lat": "50.717100000000002",
		"lng": "-127.5",
		"country": "Canada",
		"admin_name": "British Columbia",
		"capital": "",
		"population": "2295",
		"id": "1124937351"
	},
	{
		"city": "Penticton",
		"city_ascii": "Penticton",
		"lat": "49.500399999999999",
		"lng": "-119.58329999999999",
		"country": "Canada",
		"admin_name": "British Columbia",
		"capital": "",
		"population": "37721",
		"id": "1124613898"
	},
	{
		"city": "Drummondville",
		"city_ascii": "Drummondville",
		"lat": "45.883299999999998",
		"lng": "-72.483400000000003",
		"country": "Canada",
		"admin_name": "Québec",
		"capital": "",
		"population": "59489",
		"id": "1124624283"
	},
	{
		"city": "Brandon",
		"city_ascii": "Brandon",
		"lat": "49.833300000000001",
		"lng": "-99.95",
		"country": "Canada",
		"admin_name": "Manitoba",
		"capital": "",
		"population": "28418",
		"id": "1124239939"
	},
	{
		"city": "Argentia",
		"city_ascii": "Argentia",
		"lat": "47.300400000000003",
		"lng": "-53.99",
		"country": "Canada",
		"admin_name": "Newfoundland and Labrador",
		"capital": "",
		"population": "1063",
		"id": "1124242107"
	},
	{
		"city": "Kimmirut",
		"city_ascii": "Kimmirut",
		"lat": "62.85",
		"lng": "-69.883300000000006",
		"country": "Canada",
		"admin_name": "Nunavut",
		"capital": "",
		"population": "385",
		"id": "1124651529"
	},
	{
		"city": "Wiarton",
		"city_ascii": "Wiarton",
		"lat": "44.733699999999999",
		"lng": "-81.133300000000006",
		"country": "Canada",
		"admin_name": "Ontario",
		"capital": "",
		"population": "2182",
		"id": "1124916771"
	},
	{
		"city": "Ottawa",
		"city_ascii": "Ottawa",
		"lat": "45.416699999999999",
		"lng": "-75.7",
		"country": "Canada",
		"admin_name": "Ontario",
		"capital": "primary",
		"population": "1145000",
		"id": "1124399363"
	},
	{
		"city": "Fort Chipewyan",
		"city_ascii": "Fort Chipewyan",
		"lat": "58.717100000000002",
		"lng": "-111.15",
		"country": "Canada",
		"admin_name": "Alberta",
		"capital": "",
		"population": "3222",
		"id": "1124526582"
	},
	{
		"city": "Fort Nelson",
		"city_ascii": "Fort Nelson",
		"lat": "58.816699999999997",
		"lng": "-122.533",
		"country": "Canada",
		"admin_name": "British Columbia",
		"capital": "",
		"population": "6315",
		"id": "1124378059"
	},
	{
		"city": "Lynn Lake",
		"city_ascii": "Lynn Lake",
		"lat": "56.85",
		"lng": "-101.05",
		"country": "Canada",
		"admin_name": "Manitoba",
		"capital": "",
		"population": "482",
		"id": "1124617750"
	},
	{
		"city": "Weyburn",
		"city_ascii": "Weyburn",
		"lat": "49.666600000000003",
		"lng": "-103.85",
		"country": "Canada",
		"admin_name": "Saskatchewan",
		"capital": "",
		"population": "9362",
		"id": "1124618383"
	},
	{
		"city": "Burns Lake",
		"city_ascii": "Burns Lake",
		"lat": "54.216999999999999",
		"lng": "-125.7666",
		"country": "Canada",
		"admin_name": "British Columbia",
		"capital": "",
		"population": "2635",
		"id": "1124512812"
	},
	{
		"city": "Nain",
		"city_ascii": "Nain",
		"lat": "56.547400000000003",
		"lng": "-61.686",
		"country": "Canada",
		"admin_name": "Newfoundland and Labrador",
		"capital": "",
		"population": "1151",
		"id": "1124719084"
	},
	{
		"city": "Prince George",
		"city_ascii": "Prince George",
		"lat": "53.916699999999999",
		"lng": "-122.7667",
		"country": "Canada",
		"admin_name": "British Columbia",
		"capital": "",
		"population": "65558",
		"id": "1124733292"
	},
	{
		"city": "Cochrane",
		"city_ascii": "Cochrane",
		"lat": "49.067",
		"lng": "-81.016599999999997",
		"country": "Canada",
		"admin_name": "Ontario",
		"capital": "",
		"population": "4441",
		"id": "1124296729"
	},
	{
		"city": "Nipigon",
		"city_ascii": "Nipigon",
		"lat": "49.017000000000003",
		"lng": "-88.25",
		"country": "Canada",
		"admin_name": "Ontario",
		"capital": "",
		"population": "1204",
		"id": "1124361489"
	},
	{
		"city": "Rivière-du-Loup",
		"city_ascii": "Riviere-du-Loup",
		"lat": "47.833300000000001",
		"lng": "-69.533299999999997",
		"country": "Canada",
		"admin_name": "Québec",
		"capital": "",
		"population": "16403",
		"id": "1124662123"
	},
	{
		"city": "St.-Jerome",
		"city_ascii": "St.-Jerome",
		"lat": "45.766599999999997",
		"lng": "-74",
		"country": "Canada",
		"admin_name": "Québec",
		"capital": "",
		"population": "78439",
		"id": "1124268324"
	},
	{
		"city": "Geraldton",
		"city_ascii": "Geraldton",
		"lat": "49.7166",
		"lng": "-86.9666",
		"country": "Canada",
		"admin_name": "Ontario",
		"capital": "",
		"population": "1290",
		"id": "1124836221"
	},
	{
		"city": "New Liskeard",
		"city_ascii": "New Liskeard",
		"lat": "47.5",
		"lng": "-79.666600000000003",
		"country": "Canada",
		"admin_name": "Ontario",
		"capital": "",
		"population": "5203",
		"id": "1124394858"
	},
	{
		"city": "Cat Lake",
		"city_ascii": "Cat Lake",
		"lat": "51.716999999999999",
		"lng": "-91.8",
		"country": "Canada",
		"admin_name": "Ontario",
		"capital": "",
		"population": "277",
		"id": "1124908580"
	},
	{
		"city": "Tofino",
		"city_ascii": "Tofino",
		"lat": "49.152099999999997",
		"lng": "-125.90309999999999",
		"country": "Canada",
		"admin_name": "British Columbia",
		"capital": "",
		"population": "1655",
		"id": "1124140302"
	},
	{
		"city": "Tsiigehtchic",
		"city_ascii": "Tsiigehtchic",
		"lat": "67.433300000000003",
		"lng": "-133.75",
		"country": "Canada",
		"admin_name": "Northwest Territories",
		"capital": "",
		"population": "175",
		"id": "1124282127"
	},
	{
		"city": "Thompson",
		"city_ascii": "Thompson",
		"lat": "55.749899999999997",
		"lng": "-97.866600000000005",
		"country": "Canada",
		"admin_name": "Manitoba",
		"capital": "",
		"population": "13727",
		"id": "1124110693"
	},
	{
		"city": "Abbotsford",
		"city_ascii": "Abbotsford",
		"lat": "49.050400000000003",
		"lng": "-122.3",
		"country": "Canada",
		"admin_name": "British Columbia",
		"capital": "",
		"population": "151683",
		"id": "1124808029"
	},
	{
		"city": "Trois-Rivières",
		"city_ascii": "Trois Rivieres",
		"lat": "46.35",
		"lng": "-72.549899999999994",
		"country": "Canada",
		"admin_name": "Québec",
		"capital": "",
		"population": "119693",
		"id": "1124407487"
	},
	{
		"city": "Peterborough",
		"city_ascii": "Peterborough",
		"lat": "44.3",
		"lng": "-78.333299999999994",
		"country": "Canada",
		"admin_name": "Ontario",
		"capital": "",
		"population": "83627",
		"id": "1124440356"
	},
	{
		"city": "Amos",
		"city_ascii": "Amos",
		"lat": "48.566600000000001",
		"lng": "-78.116699999999994",
		"country": "Canada",
		"admin_name": "Québec",
		"capital": "",
		"population": "10516",
		"id": "1124939649"
	},
	{
		"city": "Chapleau",
		"city_ascii": "Chapleau",
		"lat": "47.8337",
		"lng": "-83.4",
		"country": "Canada",
		"admin_name": "Ontario",
		"capital": "",
		"population": "2663",
		"id": "1124518288"
	},
	{
		"city": "Athabasca",
		"city_ascii": "Athabasca",
		"lat": "54.716999999999999",
		"lng": "-113.2666",
		"country": "Canada",
		"admin_name": "Alberta",
		"capital": "",
		"population": "2539",
		"id": "1124006333"
	},
	{
		"city": "Red Deer",
		"city_ascii": "Red Deer",
		"lat": "52.266599999999997",
		"lng": "-113.8",
		"country": "Canada",
		"admin_name": "Alberta",
		"capital": "",
		"population": "74857",
		"id": "1124404130"
	},
	{
		"city": "Belleville",
		"city_ascii": "Belleville",
		"lat": "44.166699999999999",
		"lng": "-77.383300000000006",
		"country": "Canada",
		"admin_name": "Ontario",
		"capital": "",
		"population": "43990",
		"id": "1124786959"
	},
	{
		"city": "Kapuskasing",
		"city_ascii": "Kapuskasing",
		"lat": "49.416699999999999",
		"lng": "-82.433300000000003",
		"country": "Canada",
		"admin_name": "Ontario",
		"capital": "",
		"population": "9240",
		"id": "1124764245"
	},
	{
		"city": "Sioux Lookout",
		"city_ascii": "Sioux Lookout",
		"lat": "50.262999999999998",
		"lng": "-91.916600000000003",
		"country": "Canada",
		"admin_name": "Ontario",
		"capital": "",
		"population": "4570",
		"id": "1124804545"
	},
	{
		"city": "Winnipeg",
		"city_ascii": "Winnipeg",
		"lat": "49.883000000000003",
		"lng": "-97.165999999999997",
		"country": "Canada",
		"admin_name": "Manitoba",
		"capital": "admin",
		"population": "632063",
		"id": "1124224963"
	},
	{
		"city": "Lake Louise",
		"city_ascii": "Lake Louise",
		"lat": "51.433700000000002",
		"lng": "-116.1833",
		"country": "Canada",
		"admin_name": "Alberta",
		"capital": "",
		"population": "1248",
		"id": "1124619845"
	},
	{
		"city": "Banff",
		"city_ascii": "Banff",
		"lat": "51.177999999999997",
		"lng": "-115.5719",
		"country": "Canada",
		"admin_name": "Alberta",
		"capital": "",
		"population": "7502",
		"id": "1124351648"
	},
	{
		"city": "Doline",
		"city_ascii": "Doline",
		"lat": "65.183300000000003",
		"lng": "-123.41670000000001",
		"country": "Canada",
		"admin_name": "Northwest Territories",
		"capital": "",
		"population": "525",
		"id": "1124071207"
	},
	{
		"city": "Cambridge Bay",
		"city_ascii": "Cambridge Bay",
		"lat": "69.117000000000004",
		"lng": "-105.0333",
		"country": "Canada",
		"admin_name": "Nunavut",
		"capital": "",
		"population": "1477",
		"id": "1124596377"
	},
	{
		"city": "Biggar",
		"city_ascii": "Biggar",
		"lat": "52.050400000000003",
		"lng": "-107.9833",
		"country": "Canada",
		"admin_name": "Saskatchewan",
		"capital": "",
		"population": "2192",
		"id": "1124897904"
	},
	{
		"city": "Nanaimo",
		"city_ascii": "Nanaimo",
		"lat": "49.146000000000001",
		"lng": "-123.93429999999999",
		"country": "Canada",
		"admin_name": "British Columbia",
		"capital": "",
		"population": "84905",
		"id": "1124623893"
	},
	{
		"city": "Val d'Or",
		"city_ascii": "Val d'Or",
		"lat": "48.116599999999998",
		"lng": "-77.766599999999997",
		"country": "Canada",
		"admin_name": "Québec",
		"capital": "",
		"population": "20625",
		"id": "1124239138"
	},
	{
		"city": "Hall Beach",
		"city_ascii": "Hall Beach",
		"lat": "68.767499999999998",
		"lng": "-81.236099999999993",
		"country": "Canada",
		"admin_name": "Nunavut",
		"capital": "",
		"population": "654",
		"id": "1124072220"
	},
	{
		"city": "Oxford House",
		"city_ascii": "Oxford House",
		"lat": "54.950400000000002",
		"lng": "-95.266599999999997",
		"country": "Canada",
		"admin_name": "Manitoba",
		"capital": "",
		"population": "184",
		"id": "1124490415"
	},
	{
		"city": "The Pas",
		"city_ascii": "The Pas",
		"lat": "53.816600000000001",
		"lng": "-101.2333",
		"country": "Canada",
		"admin_name": "Manitoba",
		"capital": "",
		"population": "6055",
		"id": "1124755168"
	},
	{
		"city": "Meander River",
		"city_ascii": "Meander River",
		"lat": "59.033299999999997",
		"lng": "-117.68300000000001",
		"country": "Canada",
		"admin_name": "Alberta",
		"capital": "",
		"population": "200",
		"id": "1124688170"
	},
	{
		"city": "Bathurst",
		"city_ascii": "Bathurst",
		"lat": "47.6",
		"lng": "-65.650000000000006",
		"country": "Canada",
		"admin_name": "New Brunswick",
		"capital": "",
		"population": "6111",
		"id": "1124816720"
	},
	{
		"city": "Windsor",
		"city_ascii": "Windsor",
		"lat": "44.980600000000003",
		"lng": "-64.129099999999994",
		"country": "Canada",
		"admin_name": "Nova Scotia",
		"capital": "",
		"population": "3864",
		"id": "1124800737"
	},
	{
		"city": "Victoriaville",
		"city_ascii": "Victoriaville",
		"lat": "46.050400000000003",
		"lng": "-71.966700000000003",
		"country": "Canada",
		"admin_name": "Québec",
		"capital": "",
		"population": "41500",
		"id": "1124149787"
	},
	{
		"city": "Brockville",
		"city_ascii": "Brockville",
		"lat": "44.589300000000001",
		"lng": "-75.695300000000003",
		"country": "Canada",
		"admin_name": "Ontario",
		"capital": "",
		"population": "26458",
		"id": "1124286131"
	},
	{
		"city": "Hamilton",
		"city_ascii": "Hamilton",
		"lat": "43.25",
		"lng": "-79.83",
		"country": "Canada",
		"admin_name": "Ontario",
		"capital": "",
		"population": "721053",
		"id": "1124567288"
	},
	{
		"city": "Kitchener",
		"city_ascii": "Kitchener",
		"lat": "43.45",
		"lng": "-80.5",
		"country": "Canada",
		"admin_name": "Ontario",
		"capital": "",
		"population": "417001",
		"id": "1124158530"
	},
	{
		"city": "Victoria",
		"city_ascii": "Victoria",
		"lat": "48.433300000000003",
		"lng": "-123.35",
		"country": "Canada",
		"admin_name": "British Columbia",
		"capital": "admin",
		"population": "289625",
		"id": "1124147219"
	},
	{
		"city": "Orangeville",
		"city_ascii": "Orangeville",
		"lat": "43.917099999999998",
		"lng": "-80.083299999999994",
		"country": "Canada",
		"admin_name": "Ontario",
		"capital": "",
		"population": "32640",
		"id": "1124566061"
	},
	{
		"city": "Sandspit",
		"city_ascii": "Sandspit",
		"lat": "53.240400000000001",
		"lng": "-131.83330000000001",
		"country": "Canada",
		"admin_name": "British Columbia",
		"capital": "",
		"population": "538",
		"id": "1124264846"
	},
	{
		"city": "Wawa",
		"city_ascii": "Wawa",
		"lat": "48.000399999999999",
		"lng": "-84.783299999999997",
		"country": "Canada",
		"admin_name": "Ontario",
		"capital": "",
		"population": "2174",
		"id": "1124381797"
	},
	{
		"city": "Kangirsuk",
		"city_ascii": "Kangirsuk",
		"lat": "60.024799999999999",
		"lng": "-69.999099999999999",
		"country": "Canada",
		"admin_name": "Québec",
		"capital": "",
		"population": "549",
		"id": "1124276361"
	},
	{
		"city": "Shawinigan",
		"city_ascii": "Shawinigan",
		"lat": "46.550400000000003",
		"lng": "-72.7333",
		"country": "Canada",
		"admin_name": "Québec",
		"capital": "",
		"population": "49161",
		"id": "1124441118"
	},
	{
		"city": "Hearst",
		"city_ascii": "Hearst",
		"lat": "49.700499999999998",
		"lng": "-83.666600000000003",
		"country": "Canada",
		"admin_name": "Ontario",
		"capital": "",
		"population": "5043",
		"id": "1124376843"
	},
	{
		"city": "Pukatawagan",
		"city_ascii": "Pukatawagan",
		"lat": "55.7333",
		"lng": "-101.31659999999999",
		"country": "Canada",
		"admin_name": "Manitoba",
		"capital": "",
		"population": "431",
		"id": "1124927414"
	},
	{
		"city": "Arviat",
		"city_ascii": "Arviat",
		"lat": "61.108600000000003",
		"lng": "-94.058599999999998",
		"country": "Canada",
		"admin_name": "Nunavut",
		"capital": "",
		"population": "1868",
		"id": "1124309634"
	},
	{
		"city": "Matagami",
		"city_ascii": "Matagami",
		"lat": "49.750399999999999",
		"lng": "-77.633300000000006",
		"country": "Canada",
		"admin_name": "Québec",
		"capital": "",
		"population": "1966",
		"id": "1124686252"
	},
	{
		"city": "Saint John",
		"city_ascii": "Saint John",
		"lat": "45.267000000000003",
		"lng": "-66.076700000000002",
		"country": "Canada",
		"admin_name": "New Brunswick",
		"capital": "",
		"population": "87857",
		"id": "1124631364"
	},
	{
		"city": "Inuvik",
		"city_ascii": "Inuvik",
		"lat": "68.349999999999994",
		"lng": "-133.69999999999999",
		"country": "Canada",
		"admin_name": "Northwest Territories",
		"capital": "",
		"population": "3022",
		"id": "1124116419"
	},
	{
		"city": "Chesterfield Inlet",
		"city_ascii": "Chesterfield Inlet",
		"lat": "63.338299999999997",
		"lng": "-90.700100000000006",
		"country": "Canada",
		"admin_name": "Nunavut",
		"capital": "",
		"population": "374",
		"id": "1124208484"
	},
	{
		"city": "Rouyn-Noranda",
		"city_ascii": "Rouyn-Noranda",
		"lat": "48.25",
		"lng": "-79.033199999999994",
		"country": "Canada",
		"admin_name": "Québec",
		"capital": "",
		"population": "24602",
		"id": "1124267752"
	},
	{
		"city": "Liverpool",
		"city_ascii": "Liverpool",
		"lat": "44.04",
		"lng": "-64.72",
		"country": "Canada",
		"admin_name": "Nova Scotia",
		"capital": "",
		"population": "4331",
		"id": "1124159558"
	},
	{
		"city": "Montréal",
		"city_ascii": "Montreal",
		"lat": "45.5",
		"lng": "-73.583299999999994",
		"country": "Canada",
		"admin_name": "Québec",
		"capital": "",
		"population": "3678000",
		"id": "1124586170"
	},
	{
		"city": "Shelburne",
		"city_ascii": "Shelburne",
		"lat": "43.765599999999999",
		"lng": "-65.319400000000002",
		"country": "Canada",
		"admin_name": "Nova Scotia",
		"capital": "",
		"population": "3167",
		"id": "1124659892"
	},
	{
		"city": "Yarmouth",
		"city_ascii": "Yarmouth",
		"lat": "43.830800000000004",
		"lng": "-66.1126",
		"country": "Canada",
		"admin_name": "Nova Scotia",
		"capital": "",
		"population": "7500",
		"id": "1124983867"
	},
	{
		"city": "Salluit",
		"city_ascii": "Salluit",
		"lat": "62.182600000000001",
		"lng": "-75.659499999999994",
		"country": "Canada",
		"admin_name": "Québec",
		"capital": "",
		"population": "106",
		"id": "1124962070"
	},
	{
		"city": "Ivugivik",
		"city_ascii": "Ivugivik",
		"lat": "62.416600000000003",
		"lng": "-77.900000000000006",
		"country": "Canada",
		"admin_name": "Québec",
		"capital": "",
		"population": "156",
		"id": "1124828045"
	},
	{
		"city": "Québec",
		"city_ascii": "Quebec",
		"lat": "46.84",
		"lng": "-71.245599999999996",
		"country": "Canada",
		"admin_name": "Québec",
		"capital": "admin",
		"population": "624177",
		"id": "1124823933"
	},
	{
		"city": "Dawson City",
		"city_ascii": "Dawson City",
		"lat": "64.066599999999994",
		"lng": "-139.41669999999999",
		"country": "Canada",
		"admin_name": "Yukon",
		"capital": "",
		"population": "1319",
		"id": "1124075766"
	},
	{
		"city": "Moncton",
		"city_ascii": "Moncton",
		"lat": "46.083300000000001",
		"lng": "-64.7667",
		"country": "Canada",
		"admin_name": "New Brunswick",
		"capital": "",
		"population": "90635",
		"id": "1124521303"
	},
	{
		"city": "Digby",
		"city_ascii": "Digby",
		"lat": "44.622599999999998",
		"lng": "-65.760499999999993",
		"country": "Canada",
		"admin_name": "Nova Scotia",
		"capital": "",
		"population": "3949",
		"id": "1124797865"
	},
	{
		"city": "Fredericton",
		"city_ascii": "Fredericton",
		"lat": "45.95",
		"lng": "-66.633300000000006",
		"country": "Canada",
		"admin_name": "New Brunswick",
		"capital": "admin",
		"population": "52337",
		"id": "1124061289"
	},
	{
		"city": "Dease Lake",
		"city_ascii": "Dease Lake",
		"lat": "58.450299999999999",
		"lng": "-130.0333",
		"country": "Canada",
		"admin_name": "British Columbia",
		"capital": "",
		"population": "303",
		"id": "1124864417"
	},
	{
		"city": "Charlottetown",
		"city_ascii": "Charlottetown",
		"lat": "46.249299999999998",
		"lng": "-63.131300000000003",
		"country": "Canada",
		"admin_name": "Prince Edward Island",
		"capital": "admin",
		"population": "42402",
		"id": "1124897699"
	},
	{
		"city": "Inukjuak",
		"city_ascii": "Inukjuak",
		"lat": "58.47",
		"lng": "-78.135999999999996",
		"country": "Canada",
		"admin_name": "Québec",
		"capital": "",
		"population": "1597",
		"id": "1124369757"
	},
	{
		"city": "Sarnia",
		"city_ascii": "Sarnia",
		"lat": "42.9666",
		"lng": "-82.4",
		"country": "Canada",
		"admin_name": "Ontario",
		"capital": "",
		"population": "144172",
		"id": "1124509835"
	},
	{
		"city": "Edmundston",
		"city_ascii": "Edmundston",
		"lat": "47.379399999999997",
		"lng": "-68.333299999999994",
		"country": "Canada",
		"admin_name": "New Brunswick",
		"capital": "",
		"population": "17894",
		"id": "1124274233"
	},
	{
		"city": "Windsor",
		"city_ascii": "Windsor",
		"lat": "42.333300000000001",
		"lng": "-83.033299999999997",
		"country": "Canada",
		"admin_name": "Ontario",
		"capital": "",
		"population": "319246",
		"id": "1124261024"
	},
	{
		"city": "Joliette",
		"city_ascii": "Joliette",
		"lat": "46.033299999999997",
		"lng": "-73.433300000000003",
		"country": "Canada",
		"admin_name": "Québec",
		"capital": "",
		"population": "45361",
		"id": "1124841554"
	},
	{
		"city": "Amherst",
		"city_ascii": "Amherst",
		"lat": "45.816600000000001",
		"lng": "-64.2166",
		"country": "Canada",
		"admin_name": "Nova Scotia",
		"capital": "",
		"population": "9336",
		"id": "1124895094"
	},
	{
		"city": "Sept-Îles",
		"city_ascii": "Sept-Iles",
		"lat": "50.316099999999999",
		"lng": "-66.36",
		"country": "Canada",
		"admin_name": "Québec",
		"capital": "",
		"population": "25686",
		"id": "1124406431"
	},
	{
		"city": ""
	}
]